[
    {
        "identifier": 234513,
        "visitOrder": 3,
        "name": "Michael Hulet",
        "phoneNumber": "+1 (555) 344-5076",
        "profilePicture": {
            "large": "https://randomuser.me/api/portraits/men/75.jpg",
            "medium": "https://randomuser.me/api/portraits/med/men/75.jpg",
            "thumbnail": "https://randomuser.me/api/portraits/thumb/men/75.jpg"
        },
        "location": {
            "address": {
                "street": "142 N Country Club Drive",
                "city": "Hendersonville",
                "state": "Tennessee",
                "postalCode": "37075",
                "country": "USA"
            },
            "coordinate": {
                "latitude": 36.321240,
                "longitude": -86.587380
            }
        },
        "serviceReason": "I have a leaky faucet",
        "problemPictures": [
            "https://portal.fixdrepair.com/wp-content/uploads/2018/12/shutterstock_335893028-1024x678.jpg",
            "https://www.kingstonbrass.com/wp-content/uploads/2019/02/photo-1542855368-ca6ea825bca2.jpg"
        ]
    },
    {
        "identifier": 734563,
        "visitOrder": 5,
        "name": "Amber Stevens",
        "phoneNumber": "+1 (555) 841-6033",
        "profilePicture": {
            "large": "https://randomuser.me/api/portraits/women/75.jpg",
            "medium": "https://randomuser.me/api/portraits/med/women/75.jpg",
            "thumbnail": "https://randomuser.me/api/portraits/thumb/women/75.jpg"
        },
        "location": {
            "address": {
                "street": "310 Banbury Drive",
                "city": "Gallatin",
                "state": "Tennessee",
                "postalCode": "37066",
                "country": "USA"
            },
            "coordinate": {
                "latitude": 36.339180,
                "longitude": -86.520910
            }
        },
        "serviceReason": "The left light switch on the panel in my living room isn't working",
        "problemPictures": [
            "https://photos1.blogger.com/blogger/2504/2144/320/lightswitches.jpg",
            "https://i.pinimg.com/originals/40/27/61/402761624ffd779e19b37fca721e5889.jpg",
            "https://diy.sndimg.com/content/dam/images/diy/fullset/2015/6/3/Original-Emily-Fazio_Change-Light-Switch-switches-before-bad.JPG.rend.hgtvcom.616.462.suffix/1433361403030.jpeg"
        ]
    },
    {
        "identifier": 364562,
        "visitOrder": 4,
        "name": "Jennifer LÃ¥ngstrÃ¶m",
        "phoneNumber": "+1 (555) 734-9052",
        "profilePicture": {
            "large": "https://randomuser.me/api/portraits/women/3.jpg",
            "medium": "https://randomuser.me/api/portraits/med/women/3.jpg",
            "thumbnail": "https://randomuser.me/api/portraits/thumb/women/3.jpg"
        },
        "location": {
            "address": {
                "street": "549 E Main Street, Unit J145",
                "city": "Hendersonville",
                "state": "Tennessee",
                "postalCode": "37075",
                "country": "USA"
            },
            "coordinate": {
                "latitude": 36.320139,
                "longitude": -86.571630
            }
        },
        "serviceReason": "I want some paintings hung on my walls throughout my apartment",
        "problemPictures": []
    }
]
